{
 "_doc": "Verified true origins (Sonnet-assisted, Fuad 2026-07-15) overriding wrong/city-less MusicBrainz origins. name -> {country ISO2, city, lat, lng}. build-data merges lat/lng into the gazetteer and consults these first.",
 "God Is an Astronaut": {
  "country": "IE",
  "city": "Kilpedder",
  "lat": 53.1167,
  "lng": -6.1167
 },
 "Serj Tankian": {
  "country": "US",
  "city": "Los Angeles",
  "lat": 34.0522,
  "lng": -118.2437
 },
 "Black Light Burns": {
  "country": "US",
  "city": "Los Angeles",
  "lat": 34.0522,
  "lng": -118.2437
 },
 "Toronto Is Broken": {
  "country": "GB",
  "city": "London",
  "lat": 51.5074,
  "lng": -0.1278
 },
 "Artillery": {
  "country": "DK",
  "city": "Copenhagen",
  "lat": 55.6761,
  "lng": 12.5683
 },
 "Poppy": {
  "country": "US",
  "city": "Boston",
  "lat": 42.3601,
  "lng": -71.0589
 },
 "Raubtier": {
  "country": "SE",
  "city": "Stockholm",
  "lat": 59.3293,
  "lng": 18.0686
 },
 "Gorillaz": {
  "country": "GB",
  "city": "London",
  "lat": 51.5074,
  "lng": -0.1278
 },
 "Dragged Under": {
  "country": "US",
  "city": "Seattle",
  "lat": 47.6062,
  "lng": -122.3321
 },
 "Spiritbox": {
  "country": "CA",
  "city": "Victoria",
  "lat": 48.4284,
  "lng": -123.3656
 },
 "Pezet": {
  "country": "PL",
  "city": "Warsaw",
  "lat": 52.2297,
  "lng": 21.0122
 },
 "SONOIO": {
  "country": "IT",
  "city": "Bologna",
  "lat": 44.4949,
  "lng": 11.3426
 },
 "Polaris": {
  "country": "AU",
  "city": "Sydney",
  "lat": -33.8688,
  "lng": 151.2093
 },
 "Skyharbor": {
  "country": "IN",
  "city": "New Delhi",
  "lat": 28.6139,
  "lng": 77.209
 },
 "Trash Boat": {
  "country": "GB",
  "city": "St Albans",
  "lat": 51.7526,
  "lng": -0.336
 },
 "Quebonafide": {
  "country": "PL",
  "city": "Wrocław",
  "lat": 51.1079,
  "lng": 17.0385
 },
 "Ninajirachi": {
  "country": "AU",
  "city": "Sydney",
  "lat": -33.8688,
  "lng": 151.2093
 },
 "Combichrist": {
  "country": "NO",
  "city": "Bergen",
  "lat": 60.3913,
  "lng": 5.3221
 },
 "Ecca Vandal": {
  "country": "AU",
  "city": "Melbourne",
  "lat": -37.8136,
  "lng": 144.9631
 },
 "Kabanos": {
  "country": "PL",
  "city": "Warsaw",
  "lat": 52.2297,
  "lng": 21.0122
 },
 "Aimer": {
  "country": "JP",
  "city": "Tokyo",
  "lat": 35.6762,
  "lng": 139.6503
 },
 "THE MAD CAPSULE MARKETS": {
  "country": "JP",
  "city": "Kanagawa",
  "lat": 35.4478,
  "lng": 139.6425
 },
 "Dead Pony": {
  "country": "GB",
  "city": "Glasgow",
  "lat": 55.8642,
  "lng": -4.2518
 },
 "The Pineapple Thief": {
  "country": "GB",
  "city": "Yeovil",
  "lat": 50.9425,
  "lng": -2.6363
 },
 "Yellow Machinegun": {
  "country": "JP",
  "city": "Tokyo",
  "lat": 35.6762,
  "lng": 139.6503
 },
 "Aphex Twin": {
  "country": "IE",
  "city": "Limerick",
  "lat": 52.6638,
  "lng": -8.6267
 },
 "Emigrate": {
  "country": "DE",
  "city": "Frankfurt",
  "lat": 50.1109,
  "lng": 8.6821
 },
 "Kat": {
  "country": "PL",
  "city": "Warsaw",
  "lat": 52.2297,
  "lng": 21.0122
 },
 "Alex Yarmak": {
  "country": "UA",
  "city": "Kyiv",
  "lat": 50.4501,
  "lng": 30.5234
 },
 "Overkill": {
  "country": "US",
  "city": "Old Bridge Township",
  "lat": 40.4107,
  "lng": -74.2604
 },
 "Heathen": {
  "country": "US",
  "city": "San Francisco",
  "lat": 37.7749,
  "lng": -122.4194
 },
 "Frost*": {
  "country": "GB",
  "city": "London",
  "lat": 51.5074,
  "lng": -0.1278
 },
 "Bad Omens": {
  "country": "US",
  "city": "Richmond",
  "lat": 37.5407,
  "lng": -77.436
 },
 "ASHES dIVIDE": {
  "country": "US",
  "city": "Los Angeles",
  "lat": 34.0522,
  "lng": -118.2437
 },
 "Kevin Penkin": {
  "country": "AU",
  "city": "Adelaide",
  "lat": -34.9285,
  "lng": 138.6007
 },
 "Orax": {
  "country": "IL",
  "city": "Tel Aviv",
  "lat": 32.0853,
  "lng": 34.7818
 },
 "ZAZEN BOYS": {
  "country": "JP",
  "city": "Tokyo",
  "lat": 35.6895,
  "lng": 139.6917
 },
 "Asking Alexandria": {
  "country": "GB",
  "city": "York",
  "lat": 53.96,
  "lng": -1.0873
 },
 "Boston Manor": {
  "country": "GB",
  "city": "Blackpool",
  "lat": 53.8142,
  "lng": -3.0503
 },
 "Danger": {
  "country": "FR",
  "city": "Paris",
  "lat": 48.8566,
  "lng": 2.3522
 },
 "Nero": {
  "country": "GB",
  "city": "London",
  "lat": 51.5074,
  "lng": -0.1278
 },
 "Lindemann": {
  "country": "DE",
  "city": "Berlin",
  "lat": 52.52,
  "lng": 13.405
 },
 "Lisa": {
  "country": "JP",
  "city": "Nagoya",
  "lat": 35.1815,
  "lng": 136.9066
 },
 "Jamal": {
  "country": "PL",
  "city": "Warsaw",
  "lat": 52.2297,
  "lng": 21.0122
 },
 "Psy": {
  "country": "KR",
  "city": "Seoul",
  "lat": 37.5665,
  "lng": 126.978
 },
 "FKA Rayne": {
  "country": "CA",
  "city": "Surrey",
  "lat": 49.1044,
  "lng": -122.8011
 },
 "VUKOVI": {
  "country": "GB",
  "city": "Glasgow",
  "lat": 55.8642,
  "lng": -4.2518
 },
 "Kneecap": {
  "country": "IE",
  "city": "Belfast",
  "lat": 54.5973,
  "lng": -5.9301
 },
 "Loathe": {
  "country": "GB",
  "city": "Liverpool",
  "lat": 53.4084,
  "lng": -2.9916
 },
 "Metrik": {
  "country": "GB",
  "city": "London",
  "lat": 51.5074,
  "lng": -0.1278
 },
 "Figures": {
  "country": "GB",
  "city": "Birmingham",
  "lat": 52.4862,
  "lng": -1.8904
 },
 "PhaseOne": {
  "country": "AU",
  "city": "Sydney",
  "lat": -33.8688,
  "lng": 151.2093
 },
 "Anubis Gate": {
  "country": "DK",
  "city": "Copenhagen",
  "lat": 55.6761,
  "lng": 12.5683
 },
 "Softcult": {
  "country": "CA",
  "city": "Hamilton",
  "lat": 43.2557,
  "lng": -79.8711
 },
 "Gramatik": {
  "country": "SI",
  "city": "Ljubljana",
  "lat": 46.0569,
  "lng": 14.5058
 },
 "The xx": {
  "country": "GB",
  "city": "London",
  "lat": 51.5074,
  "lng": -0.1278
 },
 "Grabbitz": {
  "country": "US",
  "city": "Buffalo",
  "lat": 42.8864,
  "lng": -78.8784
 },
 "Textures": {
  "country": "NL",
  "city": "Etten-Leur",
  "lat": 51.5658,
  "lng": 4.6386
 },
 "Ladybaby": {
  "country": "JP",
  "city": "Tokyo",
  "lat": 35.6895,
  "lng": 139.6917
 },
 "Kid Kapichi": {
  "country": "GB",
  "city": "Hastings",
  "lat": 50.855,
  "lng": 0.573
 },
 "Atticus Ross": {
  "country": "GB",
  "city": "London",
  "lat": 51.5074,
  "lng": -0.1278
 },
 "YONAKA": {
  "country": "GB",
  "city": "Brighton",
  "lat": 50.8229,
  "lng": -0.1363
 },
 "Nushi": {
  "country": "JP",
  "city": "Toyama",
  "lat": 36.6953,
  "lng": 137.2113
 },
 "Aziya": {
  "country": "GB",
  "city": "London",
  "lat": 51.5074,
  "lng": -0.1278
 },
 "Berried Alive": {
  "country": "US",
  "city": "Minneapolis",
  "lat": 44.9778,
  "lng": -93.265
 },
 "grandson": {
  "country": "CA",
  "city": "Toronto",
  "lat": 43.6532,
  "lng": -79.3832
 },
 "KMFDM": {
  "country": "DE",
  "city": "Hamburg",
  "lat": 53.5753,
  "lng": 10.0153
 },
 "Bloodywood": {
  "country": "IN",
  "city": "New Delhi",
  "lat": 28.6139,
  "lng": 77.209
 },
 "Enter Shikari": {
  "country": "GB",
  "city": "St Albans",
  "lat": 51.7526,
  "lng": -0.3365
 },
 "Missile Girl Scoot": {
  "country": "JP",
  "city": "Tokyo",
  "lat": 35.6762,
  "lng": 139.6503
 },
 "Slowly Slowly": {
  "country": "AU",
  "city": "Melbourne",
  "lat": -37.8136,
  "lng": 144.9631
 },
 "Hana Lili": {
  "country": "GB",
  "city": "Cardiff",
  "lat": 51.4816,
  "lng": -3.1791
 },
 "Palisades": {
  "country": "US",
  "city": "Long Island",
  "lat": 40.7891,
  "lng": -73.135
 },
 "Eminem": {
  "country": "US",
  "city": "Detroit",
  "lat": 42.3314,
  "lng": -83.0458
 },
 "Bisz": {
  "country": "PL",
  "city": "Warsaw",
  "lat": 52.2297,
  "lng": 21.0122
 },
 "VELTPUNCH": {
  "country": "JP",
  "city": "Nagoya",
  "lat": 35.1815,
  "lng": 136.9066
 },
 "ExWHYZ": {
  "country": "JP",
  "city": "Tokyo",
  "lat": 35.6762,
  "lng": 139.6503
 },
 "The Offering": {
  "country": "US",
  "city": "Boston",
  "lat": 42.3601,
  "lng": -71.0589
 },
 "Taco Hemingway": {
  "country": "PL",
  "city": "Warsaw",
  "lat": 52.2297,
  "lng": 21.0122
 },
 "Hans Zimmer": {
  "country": "DE",
  "city": "Frankfurt am Main",
  "lat": 50.1109,
  "lng": 8.6821
 },
 "The Soft Moon": {
  "country": "US",
  "city": "Oakland",
  "lat": 37.8044,
  "lng": -122.2712
 },
 "Rebel Meets Rebel": {
  "country": "US",
  "city": "Nashville",
  "lat": 36.1627,
  "lng": -86.7816
 },
 "Alpha Wolf": {
  "country": "AU",
  "city": "Melbourne",
  "lat": -37.8136,
  "lng": 144.9631
 },
 "Egoist": {
  "country": "JP",
  "city": "Tokyo",
  "lat": 35.6762,
  "lng": 139.6503
 },
 "Tides From Nebula": {
  "country": "PL",
  "city": "Warsaw",
  "lat": 52.2297,
  "lng": 21.0122
 },
 "IAMX": {
  "country": "GB",
  "city": "Middlesbrough",
  "lat": 54.5742,
  "lng": -1.2346
 },
 "Code Orange": {
  "country": "US",
  "city": "Pittsburgh",
  "lat": 40.4406,
  "lng": -79.9959
 },
 "CherryFilter": {
  "country": "KR",
  "city": "Seoul",
  "lat": 37.5665,
  "lng": 126.978
 },
 "The Garden": {
  "country": "US",
  "city": "Orange County",
  "lat": 33.7175,
  "lng": -117.8311
 },
 "Radiohead": {
  "country": "GB",
  "city": "Abingdon-on-Thames",
  "lat": 51.6708,
  "lng": -1.288
 },
 "Brutus": {
  "country": "BE",
  "city": "Leuven",
  "lat": 50.8798,
  "lng": 4.7005
 },
 "Thine": {
  "country": "GB",
  "city": "Leeds",
  "lat": 53.8008,
  "lng": -1.5491
 },
 "Seether": {
  "country": "ZA",
  "city": "Pretoria",
  "lat": -25.7479,
  "lng": 28.2293
 },
 "Gustavo Santaolalla": {
  "country": "AR",
  "city": "Buenos Aires",
  "lat": -34.6037,
  "lng": -58.3816
 },
 "Au/Ra": {
  "country": "DE",
  "city": "Frankfurt",
  "lat": 50.1109,
  "lng": 8.6821
 },
 "False Heads": {
  "country": "GB",
  "city": "London",
  "lat": 51.5074,
  "lng": -0.1278
 },
 "Banks Arcade": {
  "country": "NZ",
  "city": "Auckland",
  "lat": -36.8485,
  "lng": 174.7633
 },
 "Tallah": {
  "country": "US",
  "city": "Findlay",
  "lat": 41.0442,
  "lng": -83.6499
 },
 "EERA": {
  "country": "NO",
  "city": "Oslo",
  "lat": 59.9139,
  "lng": 10.7522
 },
 "Liily": {
  "country": "US",
  "city": "Los Angeles",
  "lat": 34.0522,
  "lng": -118.2437
 },
 "Atreyu": {
  "country": "US",
  "city": "Orange County",
  "lat": 33.7175,
  "lng": -117.8311
 },
 "Modestep": {
  "country": "GB",
  "city": "London",
  "lat": 51.5074,
  "lng": -0.1278
 },
 "Oceans": {
  "country": "DE",
  "city": "Munich",
  "lat": 48.1351,
  "lng": 11.582
 },
 "The Plot in You": {
  "country": "US",
  "city": "Hancock County",
  "lat": 41.0023,
  "lng": -83.6549
 },
 "Cry Club": {
  "country": "AU",
  "city": "Melbourne",
  "lat": -37.8136,
  "lng": 144.9631
 },
 "Hyde": {
  "country": "JP",
  "city": "Osaka",
  "lat": 34.6937,
  "lng": 135.5023
 }
}